{"interestsByCity":[{"city":"San Francisco, CA","_id":"59bb0b4f2e66ce5df0337c93","dislikedInterests":[{"id":"mazarine-coffee-san-francisco-2","name":"Mazarine Coffee","image_url":"https://s3-media2.fl.yelpcdn.com/bphoto/ztvvrbekdD9MjDQC4KAuvg/o.jpg","is_closed":false,"url":"https://www.yelp.com/biz/mazarine-coffee-san-francisco-2?adjust_creative=a7T5K2HfQ_EfCUXRhlrLLQ&utm_campaign=yelp_api_v3&utm_medium=api_v3_business_search&utm_source=a7T5K2HfQ_EfCUXRhlrLLQ","review_count":449,"categories":[{"alias":"coffee","title":"Coffee & Tea"},{"alias":"sandwiches","title":"Sandwiches"},{"alias":"breakfast_brunch","title":"Breakfast & Brunch"}],"rating":4,"coordinates":{"latitude":37.787579982406,"longitude":-122.404056472387},"transactions":[],"price":"$$","location":{"address1":"720 Market St","address2":"","address3":"","city":"San Francisco","zip_code":"94102","country":"US","state":"CA","display_address":["720 Market St","San Francisco, CA 94102"]},"phone":"+14153987700","display_phone":"(415) 398-7700","distance":277.35178876559996},{"distance":594.3128789187999,"display_phone":"(415) 688-5608","phone":"+14156885608","location":{"display_address":["260 5th St","San Francisco, CA 94103"],"state":"CA","country":"US","zip_code":"94103","city":"San Francisco","address3":"","address2":null,"address1":"260 5th St"},"price":"$$","transactions":[],"coordinates":{"longitude":-122.404073551297,"latitude":37.7807734161615},"rating":4,"categories":[{"title":"Coffee & Tea","alias":"coffee"},{"title":"Coffee Roasteries","alias":"coffeeroasteries"}],"review_count":56,"url":"https://www.yelp.com/biz/contraband-coffee-bar-san-francisco-4?adjust_creative=a7T5K2HfQ_EfCUXRhlrLLQ&utm_campaign=yelp_api_v3&utm_medium=api_v3_business_search&utm_source=a7T5K2HfQ_EfCUXRhlrLLQ","is_closed":false,"image_url":"https://s3-media2.fl.yelpcdn.com/bphoto/qI3qiP0Xm6fcjnuNziLPcw/o.jpg","name":"Contraband Coffee Bar","id":"contraband-coffee-bar-san-francisco-4"},{"distance":489.65838385579997,"display_phone":"(626) 862-4582","phone":"+16268624582","location":{"display_address":["654 Mission St","San Francisco, CA 94105"],"state":"CA","country":"US","zip_code":"94105","city":"San Francisco","address3":"","address2":"","address1":"654 Mission St"},"price":"$","transactions":[],"coordinates":{"longitude":-122.401114503939,"latitude":37.7872190775148},"rating":4.5,"categories":[{"title":"Coffee & Tea","alias":"coffee"}],"review_count":34,"url":"https://www.yelp.com/biz/st-clare-coffee-san-francisco-2?adjust_creative=a7T5K2HfQ_EfCUXRhlrLLQ&utm_campaign=yelp_api_v3&utm_medium=api_v3_business_search&utm_source=a7T5K2HfQ_EfCUXRhlrLLQ","is_closed":false,"image_url":"https://s3-media1.fl.yelpcdn.com/bphoto/bWOXbSBoqLGk4kqa-40ojw/o.jpg","name":"St. Clare Coffee","id":"st-clare-coffee-san-francisco-2"},{"distance":384.22274734359996,"display_phone":"(510) 653-3394","phone":"+15106533394","location":{"display_address":["66 Mint St","San Francisco, CA 94103"],"state":"CA","country":"US","zip_code":"94103","city":"San Francisco","address3":"","address2":"","address1":"66 Mint St"},"price":"$$","transactions":[],"coordinates":{"longitude":-122.407753326389,"latitude":37.7824664727379},"rating":4,"categories":[{"title":"Coffee & Tea","alias":"coffee"}],"review_count":2014,"url":"https://www.yelp.com/biz/blue-bottle-coffee-san-francisco-21?adjust_creative=a7T5K2HfQ_EfCUXRhlrLLQ&utm_campaign=yelp_api_v3&utm_medium=api_v3_business_search&utm_source=a7T5K2HfQ_EfCUXRhlrLLQ","is_closed":false,"image_url":"https://s3-media1.fl.yelpcdn.com/bphoto/YKoMObZPbtVi1l7f3g4xwg/o.jpg","name":"Blue Bottle Coffee","id":"blue-bottle-coffee-san-francisco-21"},{"distance":444.389146342,"categories":[{"title":"Day Spas","alias":"spas"},{"title":"Massage","alias":"massage"},{"title":"Skin Care","alias":"skincare"}],"id":"pure-organic-spa-san-francisco","display_phone":"(415) 576-9600","is_closed":false,"image_url":"https://s3-media4.fl.yelpcdn.com/bphoto/EVMrGeotEHRhouiPXvWqUQ/o.jpg","phone":"+14155769600","coordinates":{"longitude":-122.409078,"latitude":37.789506},"location":{"zip_code":"94102","address1":"518 Sutter St","state":"CA","address3":"","address2":"Fl 3","country":"US","display_address":["518 Sutter St","Fl 3","San Francisco, CA 94102"],"city":"San Francisco"},"price":"$$","url":"https://www.yelp.com/biz/pure-organic-spa-san-francisco?adjust_creative=a7T5K2HfQ_EfCUXRhlrLLQ&utm_campaign=yelp_api_v3&utm_medium=api_v3_business_search&utm_source=a7T5K2HfQ_EfCUXRhlrLLQ","transactions":[],"name":"Pure Organic Spa","review_count":190,"rating":4.5},{"distance":1965.2579329179998,"categories":[{"title":"Day Spas","alias":"spas"},{"title":"Saunas","alias":"saunas"},{"title":"Massage","alias":"massage"}],"id":"pearl-spa-and-sauna-san-francisco-2","display_phone":"(415) 580-7142","is_closed":false,"image_url":"https://s3-media2.fl.yelpcdn.com/bphoto/37kQtZ1ohB4NlLs7CsTb_g/o.jpg","phone":"+14155807142","coordinates":{"longitude":-122.4290763,"latitude":37.7856868},"location":{"zip_code":"94115","address1":"1656 Post St","state":"CA","address3":"","address2":null,"country":"US","display_address":["1656 Post St","San Francisco, CA 94115"],"city":"San Francisco"},"price":"$$","url":"https://www.yelp.com/biz/pearl-spa-and-sauna-san-francisco-2?adjust_creative=a7T5K2HfQ_EfCUXRhlrLLQ&utm_campaign=yelp_api_v3&utm_medium=api_v3_business_search&utm_source=a7T5K2HfQ_EfCUXRhlrLLQ","transactions":[],"name":"Pearl Spa & Sauna","review_count":167,"rating":5},{"distance":117.66616024096,"categories":[{"title":"Skin Care","alias":"skincare"}],"id":"dawn-patrice-skincare-san-francisco","display_phone":"(415) 577-0259","is_closed":false,"image_url":"https://s3-media4.fl.yelpcdn.com/bphoto/Re8yRo_nhoF61J0ZvyQNRg/o.jpg","phone":"+14155770259","coordinates":{"longitude":-122.407624,"latitude":37.7850854},"location":{"zip_code":"94102","address1":"870 Market St","state":"CA","address3":"","address2":"Ste 1190","country":"US","display_address":["870 Market St","Ste 1190","San Francisco, CA 94102"],"city":"San Francisco"},"price":"$$","url":"https://www.yelp.com/biz/dawn-patrice-skincare-san-francisco?adjust_creative=a7T5K2HfQ_EfCUXRhlrLLQ&utm_campaign=yelp_api_v3&utm_medium=api_v3_business_search&utm_source=a7T5K2HfQ_EfCUXRhlrLLQ","transactions":[],"name":"Dawn Patrice Skincare","review_count":38,"rating":5},{"distance":382.9500008046,"categories":[{"title":"Hair Salons","alias":"hair"},{"title":"Hair Removal","alias":"hairremoval"},{"title":"Skin Care","alias":"skincare"}],"id":"maiden-lane-salon-and-spa-san-francisco-2","display_phone":"(415) 981-2426","is_closed":false,"image_url":"https://s3-media3.fl.yelpcdn.com/bphoto/daQ4RAhSOAWjC_N0XInbkQ/o.jpg","phone":"+14159812426","coordinates":{"longitude":-122.404289,"latitude":37.789101},"location":{"zip_code":"94108","address1":"126 Post St","state":"CA","address3":"","address2":"Fl 4","country":"US","display_address":["126 Post St","Fl 4","San Francisco, CA 94108"],"city":"San Francisco"},"price":"$$$","url":"https://www.yelp.com/biz/maiden-lane-salon-and-spa-san-francisco-2?adjust_creative=a7T5K2HfQ_EfCUXRhlrLLQ&utm_campaign=yelp_api_v3&utm_medium=api_v3_business_search&utm_source=a7T5K2HfQ_EfCUXRhlrLLQ","transactions":[],"name":"Maiden Lane Salon & Spa","review_count":20,"rating":5},{"distance":373.893456048,"categories":[{"title":"Skin Care","alias":"skincare"},{"title":"Day Spas","alias":"spas"},{"title":"Waxing","alias":"waxing"}],"id":"coco-spa-san-francisco","display_phone":"(415) 659-8535","is_closed":false,"image_url":"https://s3-media3.fl.yelpcdn.com/bphoto/bbr38eSPC-49TKGwvL2Qdg/o.jpg","phone":"+14156598535","coordinates":{"longitude":-122.4098946,"latitude":37.7881812},"location":{"zip_code":"94102","address1":"490 Post St","state":"CA","address3":"","address2":"Ste 1701","country":"US","display_address":["490 Post St","Ste 1701","San Francisco, CA 94102"],"city":"San Francisco"},"price":"$$","url":"https://www.yelp.com/biz/coco-spa-san-francisco?adjust_creative=a7T5K2HfQ_EfCUXRhlrLLQ&utm_campaign=yelp_api_v3&utm_medium=api_v3_business_search&utm_source=a7T5K2HfQ_EfCUXRhlrLLQ","transactions":[],"name":"CoCo Spa","review_count":55,"rating":5},{"distance":819.335593552,"categories":[{"title":"Nail Salons","alias":"othersalons"},{"title":"Skin Care","alias":"skincare"}],"id":"urban-beauty-spa-san-francisco","display_phone":"(415) 795-3439","is_closed":false,"image_url":"https://s3-media3.fl.yelpcdn.com/bphoto/YfsgsDOS83NZEdAYo0ytYQ/o.jpg","phone":"+14157953439","coordinates":{"longitude":-122.400157917791,"latitude":37.7913985373215},"location":{"zip_code":"94104","address1":"130 Bush St","state":"CA","address3":"","address2":"Fl 4","country":"US","display_address":["130 Bush St","Fl 4","San Francisco, CA 94104"],"city":"San Francisco"},"price":"$$","url":"https://www.yelp.com/biz/urban-beauty-spa-san-francisco?adjust_creative=a7T5K2HfQ_EfCUXRhlrLLQ&utm_campaign=yelp_api_v3&utm_medium=api_v3_business_search&utm_source=a7T5K2HfQ_EfCUXRhlrLLQ","transactions":[],"name":"Urban Beauty Spa","review_count":117,"rating":4},{"distance":384.22274734359996,"categories":[{"title":"Coffee & Tea","alias":"coffee"}],"id":"blue-bottle-coffee-san-francisco-21","display_phone":"(510) 653-3394","is_closed":false,"image_url":"https://s3-media1.fl.yelpcdn.com/bphoto/YKoMObZPbtVi1l7f3g4xwg/o.jpg","phone":"+15106533394","coordinates":{"longitude":-122.407753326389,"latitude":37.7824664727379},"location":{"zip_code":"94103","address1":"66 Mint St","state":"CA","address3":"","address2":"","country":"US","display_address":["66 Mint St","San Francisco, CA 94103"],"city":"San Francisco"},"price":"$$","url":"https://www.yelp.com/biz/blue-bottle-coffee-san-francisco-21?adjust_creative=a7T5K2HfQ_EfCUXRhlrLLQ&utm_campaign=yelp_api_v3&utm_medium=api_v3_business_search&utm_source=a7T5K2HfQ_EfCUXRhlrLLQ","transactions":[],"name":"Blue Bottle Coffee","review_count":2016,"rating":4},{"distance":719.216138142,"categories":[{"title":"Coffee & Tea","alias":"coffee"}],"id":"equator-coffees-and-teas-san-francisco-3","display_phone":"(415) 872-9482","is_closed":false,"image_url":"https://s3-media2.fl.yelpcdn.com/bphoto/2LRPD9gWveeXdcm5g3ugXA/o.jpg","phone":"+14158729482","coordinates":{"longitude":-122.398275956512,"latitude":37.7863718240192},"location":{"zip_code":"94105","address1":"222 2nd St","state":"CA","address3":null,"address2":"","country":"US","display_address":["222 2nd St","San Francisco, CA 94105"],"city":"San Francisco"},"price":"$$","url":"https://www.yelp.com/biz/equator-coffees-and-teas-san-francisco-3?adjust_creative=a7T5K2HfQ_EfCUXRhlrLLQ&utm_campaign=yelp_api_v3&utm_medium=api_v3_business_search&utm_source=a7T5K2HfQ_EfCUXRhlrLLQ","transactions":[],"name":"Equator Coffees & Teas","review_count":43,"rating":4.5},{"distance":384.22274734359996,"categories":[{"title":"Coffee & Tea","alias":"coffee"}],"id":"blue-bottle-coffee-san-francisco-21","display_phone":"(510) 653-3394","is_closed":false,"image_url":"https://s3-media1.fl.yelpcdn.com/bphoto/YKoMObZPbtVi1l7f3g4xwg/o.jpg","phone":"+15106533394","coordinates":{"longitude":-122.407753326389,"latitude":37.7824664727379},"location":{"zip_code":"94103","address1":"66 Mint St","state":"CA","address3":"","address2":"","country":"US","display_address":["66 Mint St","San Francisco, CA 94103"],"city":"San Francisco"},"price":"$$","url":"https://www.yelp.com/biz/blue-bottle-coffee-san-francisco-21?adjust_creative=a7T5K2HfQ_EfCUXRhlrLLQ&utm_campaign=yelp_api_v3&utm_medium=api_v3_business_search&utm_source=a7T5K2HfQ_EfCUXRhlrLLQ","transactions":[],"name":"Blue Bottle Coffee","review_count":2016,"rating":4},{"distance":527.7056920262,"categories":[{"title":"Coffee & Tea","alias":"coffee"},{"title":"Bars","alias":"bars"}],"id":"covo-public-cafe-and-tap-room-san-francisco","display_phone":"(415) 886-6206","is_closed":false,"image_url":"https://s3-media2.fl.yelpcdn.com/bphoto/cOCmLkOstQQhJh1mHlfihg/o.jpg","phone":"+14158866206","coordinates":{"longitude":-122.408153191209,"latitude":37.781345397234},"location":{"zip_code":"94103","address1":"981 Mission St","state":"CA","address3":null,"address2":"","country":"US","display_address":["981 Mission St","San Francisco, CA 94103"],"city":"San Francisco"},"price":"$$","url":"https://www.yelp.com/biz/covo-public-cafe-and-tap-room-san-francisco?adjust_creative=a7T5K2HfQ_EfCUXRhlrLLQ&utm_campaign=yelp_api_v3&utm_medium=api_v3_business_search&utm_source=a7T5K2HfQ_EfCUXRhlrLLQ","transactions":[],"name":"Covo - Public Cafe and Tap Room","review_count":9,"rating":5},{"distance":451.92869502779996,"categories":[{"title":"Comedy Clubs","alias":"comedyclubs"},{"title":"Performing Arts","alias":"theater"},{"title":"Magicians","alias":"magicians"}],"id":"marrakech-magic-theater-san-francisco-5","display_phone":"(415) 794-6893","is_closed":false,"image_url":"https://s3-media2.fl.yelpcdn.com/bphoto/zfbIjMhmMuFVdKuKbj-_bQ/o.jpg","phone":"+14157946893","coordinates":{"longitude":-122.4117914,"latitude":37.7858118},"location":{"zip_code":"94102","address1":"419 O'Farrell St","state":"CA","address3":"","address2":"","country":"US","display_address":["419 O'Farrell St","San Francisco, CA 94102"],"city":"San Francisco"},"price":"$$","url":"https://www.yelp.com/biz/marrakech-magic-theater-san-francisco-5?adjust_creative=a7T5K2HfQ_EfCUXRhlrLLQ&utm_campaign=yelp_api_v3&utm_medium=api_v3_business_search&utm_source=a7T5K2HfQ_EfCUXRhlrLLQ","transactions":[],"name":"Marrakech Magic Theater","review_count":400,"rating":5}],"interests":[{"distance":384.22274734359996,"display_phone":"(510) 653-3394","phone":"+15106533394","location":{"display_address":["66 Mint St","San Francisco, CA 94103"],"state":"CA","country":"US","zip_code":"94103","city":"San Francisco","address3":"","address2":"","address1":"66 Mint St"},"price":"$$","transactions":[],"coordinates":{"longitude":-122.407753326389,"latitude":37.7824664727379},"rating":4,"categories":[{"title":"Coffee & Tea","alias":"coffee"}],"review_count":2014,"url":"https://www.yelp.com/biz/blue-bottle-coffee-san-francisco-21?adjust_creative=a7T5K2HfQ_EfCUXRhlrLLQ&utm_campaign=yelp_api_v3&utm_medium=api_v3_business_search&utm_source=a7T5K2HfQ_EfCUXRhlrLLQ","is_closed":false,"image_url":"https://s3-media1.fl.yelpcdn.com/bphoto/YKoMObZPbtVi1l7f3g4xwg/o.jpg","name":"Blue Bottle Coffee","id":"blue-bottle-coffee-san-francisco-21"},{"distance":719.216138142,"display_phone":"(415) 872-9482","phone":"+14158729482","location":{"display_address":["222 2nd St","San Francisco, CA 94105"],"state":"CA","country":"US","zip_code":"94105","city":"San Francisco","address3":null,"address2":"","address1":"222 2nd St"},"price":"$$","transactions":[],"coordinates":{"longitude":-122.398275956512,"latitude":37.7863718240192},"rating":4.5,"categories":[{"title":"Coffee & Tea","alias":"coffee"}],"review_count":43,"url":"https://www.yelp.com/biz/equator-coffees-and-teas-san-francisco-3?adjust_creative=a7T5K2HfQ_EfCUXRhlrLLQ&utm_campaign=yelp_api_v3&utm_medium=api_v3_business_search&utm_source=a7T5K2HfQ_EfCUXRhlrLLQ","is_closed":false,"image_url":"https://s3-media2.fl.yelpcdn.com/bphoto/2LRPD9gWveeXdcm5g3ugXA/o.jpg","name":"Equator Coffees & Teas","id":"equator-coffees-and-teas-san-francisco-3"},{"distance":527.7056920262,"display_phone":"(415) 886-6206","phone":"+14158866206","location":{"display_address":["981 Mission St","San Francisco, CA 94103"],"state":"CA","country":"US","zip_code":"94103","city":"San Francisco","address3":null,"address2":"","address1":"981 Mission St"},"price":"$$","transactions":[],"coordinates":{"longitude":-122.408153191209,"latitude":37.781345397234},"rating":5,"categories":[{"title":"Coffee & Tea","alias":"coffee"},{"title":"Bars","alias":"bars"}],"review_count":9,"url":"https://www.yelp.com/biz/covo-public-cafe-and-tap-room-san-francisco?adjust_creative=a7T5K2HfQ_EfCUXRhlrLLQ&utm_campaign=yelp_api_v3&utm_medium=api_v3_business_search&utm_source=a7T5K2HfQ_EfCUXRhlrLLQ","is_closed":false,"image_url":"https://s3-media2.fl.yelpcdn.com/bphoto/cOCmLkOstQQhJh1mHlfihg/o.jpg","name":"Covo - Public Cafe and Tap Room","id":"covo-public-cafe-and-tap-room-san-francisco"},{"distance":277.35178876559996,"display_phone":"(415) 398-7700","phone":"+14153987700","location":{"display_address":["720 Market St","San Francisco, CA 94102"],"state":"CA","country":"US","zip_code":"94102","city":"San Francisco","address3":"","address2":"","address1":"720 Market St"},"price":"$$","transactions":[],"coordinates":{"longitude":-122.404056472387,"latitude":37.787579982406},"rating":4,"categories":[{"title":"Coffee & Tea","alias":"coffee"},{"title":"Sandwiches","alias":"sandwiches"},{"title":"Breakfast & Brunch","alias":"breakfast_brunch"}],"review_count":449,"url":"https://www.yelp.com/biz/mazarine-coffee-san-francisco-2?adjust_creative=a7T5K2HfQ_EfCUXRhlrLLQ&utm_campaign=yelp_api_v3&utm_medium=api_v3_business_search&utm_source=a7T5K2HfQ_EfCUXRhlrLLQ","is_closed":false,"image_url":"https://s3-media2.fl.yelpcdn.com/bphoto/ztvvrbekdD9MjDQC4KAuvg/o.jpg","name":"Mazarine Coffee","id":"mazarine-coffee-san-francisco-2"},{"distance":594.3128789187999,"display_phone":"(415) 688-5608","phone":"+14156885608","location":{"display_address":["260 5th St","San Francisco, CA 94103"],"state":"CA","country":"US","zip_code":"94103","city":"San Francisco","address3":"","address2":null,"address1":"260 5th St"},"price":"$$","transactions":[],"coordinates":{"longitude":-122.404073551297,"latitude":37.7807734161615},"rating":4,"categories":[{"title":"Coffee & Tea","alias":"coffee"},{"title":"Coffee Roasteries","alias":"coffeeroasteries"}],"review_count":56,"url":"https://www.yelp.com/biz/contraband-coffee-bar-san-francisco-4?adjust_creative=a7T5K2HfQ_EfCUXRhlrLLQ&utm_campaign=yelp_api_v3&utm_medium=api_v3_business_search&utm_source=a7T5K2HfQ_EfCUXRhlrLLQ","is_closed":false,"image_url":"https://s3-media2.fl.yelpcdn.com/bphoto/qI3qiP0Xm6fcjnuNziLPcw/o.jpg","name":"Contraband Coffee Bar","id":"contraband-coffee-bar-san-francisco-4"},{"distance":373.893456048,"categories":[{"title":"Skin Care","alias":"skincare"},{"title":"Day Spas","alias":"spas"},{"title":"Waxing","alias":"waxing"}],"id":"coco-spa-san-francisco","display_phone":"(415) 659-8535","is_closed":false,"image_url":"https://s3-media3.fl.yelpcdn.com/bphoto/bbr38eSPC-49TKGwvL2Qdg/o.jpg","phone":"+14156598535","coordinates":{"longitude":-122.4098946,"latitude":37.7881812},"location":{"zip_code":"94102","address1":"490 Post St","state":"CA","address3":"","address2":"Ste 1701","country":"US","display_address":["490 Post St","Ste 1701","San Francisco, CA 94102"],"city":"San Francisco"},"price":"$$","url":"https://www.yelp.com/biz/coco-spa-san-francisco?adjust_creative=a7T5K2HfQ_EfCUXRhlrLLQ&utm_campaign=yelp_api_v3&utm_medium=api_v3_business_search&utm_source=a7T5K2HfQ_EfCUXRhlrLLQ","transactions":[],"name":"CoCo Spa","review_count":55,"rating":5},{"distance":774.6062735147999,"categories":[{"title":"Day Spas","alias":"spas"}],"id":"nob-hill-spa-san-francisco","display_phone":"(415) 345-2888","is_closed":false,"image_url":"https://s3-media2.fl.yelpcdn.com/bphoto/6qrNW_H-T4ofyeWdAJYlFA/o.jpg","phone":"+14153452888","coordinates":{"longitude":-122.4121171,"latitude":37.7914644},"location":{"zip_code":"94108","address1":"1075 California St","state":"CA","address3":"The Scarlet Huntington","address2":"","country":"US","display_address":["1075 California St","The Scarlet Huntington","San Francisco, CA 94108"],"city":"San Francisco"},"price":"$$$","url":"https://www.yelp.com/biz/nob-hill-spa-san-francisco?adjust_creative=a7T5K2HfQ_EfCUXRhlrLLQ&utm_campaign=yelp_api_v3&utm_medium=api_v3_business_search&utm_source=a7T5K2HfQ_EfCUXRhlrLLQ","transactions":[],"name":"Nob Hill Spa","review_count":412,"rating":4},{"distance":435.775958662,"categories":[{"title":"Day Spas","alias":"spas"},{"title":"Massage","alias":"massage"}],"id":"remède-spa-san-francisco-2","display_phone":"(415) 284-4060","is_closed":false,"image_url":"https://s3-media3.fl.yelpcdn.com/bphoto/BzYNIr43QcyHvTtNufuyqQ/o.jpg","phone":"+14152844060","coordinates":{"longitude":-122.401492595673,"latitude":37.7861248725149},"location":{"zip_code":"94103","address1":"125 3rd St","state":"CA","address3":"The St Regis Hotel","address2":"","country":"US","display_address":["125 3rd St","The St Regis Hotel","San Francisco, CA 94103"],"city":"San Francisco"},"price":"$$$$","url":"https://www.yelp.com/biz/rem%C3%A8de-spa-san-francisco-2?adjust_creative=a7T5K2HfQ_EfCUXRhlrLLQ&utm_campaign=yelp_api_v3&utm_medium=api_v3_business_search&utm_source=a7T5K2HfQ_EfCUXRhlrLLQ","transactions":[],"name":"Remède Spa","review_count":122,"rating":4},{"distance":435.775958662,"categories":[{"title":"Day Spas","alias":"spas"},{"title":"Massage","alias":"massage"}],"id":"remède-spa-san-francisco-2","display_phone":"(415) 284-4060","is_closed":false,"image_url":"https://s3-media3.fl.yelpcdn.com/bphoto/BzYNIr43QcyHvTtNufuyqQ/o.jpg","phone":"+14152844060","coordinates":{"longitude":-122.401492595673,"latitude":37.7861248725149},"location":{"zip_code":"94103","address1":"125 3rd St","state":"CA","address3":"The St Regis Hotel","address2":"","country":"US","display_address":["125 3rd St","The St Regis Hotel","San Francisco, CA 94103"],"city":"San Francisco"},"price":"$$$$","url":"https://www.yelp.com/biz/rem%C3%A8de-spa-san-francisco-2?adjust_creative=a7T5K2HfQ_EfCUXRhlrLLQ&utm_campaign=yelp_api_v3&utm_medium=api_v3_business_search&utm_source=a7T5K2HfQ_EfCUXRhlrLLQ","transactions":[],"name":"Remède Spa","review_count":122,"rating":4},{"distance":594.3128789187999,"categories":[{"title":"Coffee & Tea","alias":"coffee"},{"title":"Coffee Roasteries","alias":"coffeeroasteries"}],"id":"contraband-coffee-bar-san-francisco-4","display_phone":"(415) 688-5608","is_closed":false,"image_url":"https://s3-media2.fl.yelpcdn.com/bphoto/qI3qiP0Xm6fcjnuNziLPcw/o.jpg","phone":"+14156885608","coordinates":{"longitude":-122.404073551297,"latitude":37.7807734161615},"location":{"zip_code":"94103","address1":"260 5th St","state":"CA","address3":"","address2":null,"country":"US","display_address":["260 5th St","San Francisco, CA 94103"],"city":"San Francisco"},"price":"$$","url":"https://www.yelp.com/biz/contraband-coffee-bar-san-francisco-4?adjust_creative=a7T5K2HfQ_EfCUXRhlrLLQ&utm_campaign=yelp_api_v3&utm_medium=api_v3_business_search&utm_source=a7T5K2HfQ_EfCUXRhlrLLQ","transactions":[],"name":"Contraband Coffee Bar","review_count":57,"rating":4},{"distance":527.7056920262,"categories":[{"title":"Coffee & Tea","alias":"coffee"},{"title":"Bars","alias":"bars"}],"id":"covo-public-cafe-and-tap-room-san-francisco","display_phone":"(415) 886-6206","is_closed":false,"image_url":"https://s3-media2.fl.yelpcdn.com/bphoto/cOCmLkOstQQhJh1mHlfihg/o.jpg","phone":"+14158866206","coordinates":{"longitude":-122.408153191209,"latitude":37.781345397234},"location":{"zip_code":"94103","address1":"981 Mission St","state":"CA","address3":null,"address2":"","country":"US","display_address":["981 Mission St","San Francisco, CA 94103"],"city":"San Francisco"},"price":"$$","url":"https://www.yelp.com/biz/covo-public-cafe-and-tap-room-san-francisco?adjust_creative=a7T5K2HfQ_EfCUXRhlrLLQ&utm_campaign=yelp_api_v3&utm_medium=api_v3_business_search&utm_source=a7T5K2HfQ_EfCUXRhlrLLQ","transactions":[],"name":"Covo - Public Cafe and Tap Room","review_count":9,"rating":5},{"distance":277.35178876559996,"categories":[{"title":"Coffee & Tea","alias":"coffee"},{"title":"Sandwiches","alias":"sandwiches"},{"title":"Breakfast & Brunch","alias":"breakfast_brunch"}],"id":"mazarine-coffee-san-francisco-2","display_phone":"(415) 398-7700","is_closed":false,"image_url":"https://s3-media2.fl.yelpcdn.com/bphoto/ztvvrbekdD9MjDQC4KAuvg/o.jpg","phone":"+14153987700","coordinates":{"longitude":-122.404056472387,"latitude":37.787579982406},"location":{"zip_code":"94102","address1":"720 Market St","state":"CA","address3":"","address2":"","country":"US","display_address":["720 Market St","San Francisco, CA 94102"],"city":"San Francisco"},"price":"$$","url":"https://www.yelp.com/biz/mazarine-coffee-san-francisco-2?adjust_creative=a7T5K2HfQ_EfCUXRhlrLLQ&utm_campaign=yelp_api_v3&utm_medium=api_v3_business_search&utm_source=a7T5K2HfQ_EfCUXRhlrLLQ","transactions":[],"name":"Mazarine Coffee","review_count":450,"rating":4},{"distance":594.3128789187999,"categories":[{"title":"Coffee & Tea","alias":"coffee"},{"title":"Coffee Roasteries","alias":"coffeeroasteries"}],"id":"contraband-coffee-bar-san-francisco-4","display_phone":"(415) 688-5608","is_closed":false,"image_url":"https://s3-media2.fl.yelpcdn.com/bphoto/qI3qiP0Xm6fcjnuNziLPcw/o.jpg","phone":"+14156885608","coordinates":{"longitude":-122.404073551297,"latitude":37.7807734161615},"location":{"zip_code":"94103","address1":"260 5th St","state":"CA","address3":"","address2":null,"country":"US","display_address":["260 5th St","San Francisco, CA 94103"],"city":"San Francisco"},"price":"$$","url":"https://www.yelp.com/biz/contraband-coffee-bar-san-francisco-4?adjust_creative=a7T5K2HfQ_EfCUXRhlrLLQ&utm_campaign=yelp_api_v3&utm_medium=api_v3_business_search&utm_source=a7T5K2HfQ_EfCUXRhlrLLQ","transactions":[],"name":"Contraband Coffee Bar","review_count":57,"rating":4},{"distance":338.09021157359996,"categories":[{"title":"Coffee & Tea","alias":"coffee"}],"id":"iron-horse-coffee-bar-san-francisco","display_phone":"","is_closed":false,"image_url":"https://s3-media3.fl.yelpcdn.com/bphoto/pm-IvcSaCaa0G4aSouINjQ/o.jpg","phone":"","coordinates":{"longitude":-122.404029965401,"latitude":37.7882923185825},"location":{"zip_code":"94108","address1":"25 Maiden Ln","state":"CA","address3":"","address2":null,"country":"US","display_address":["25 Maiden Ln","San Francisco, CA 94108"],"city":"San Francisco"},"price":"$","url":"https://www.yelp.com/biz/iron-horse-coffee-bar-san-francisco?adjust_creative=a7T5K2HfQ_EfCUXRhlrLLQ&utm_campaign=yelp_api_v3&utm_medium=api_v3_business_search&utm_source=a7T5K2HfQ_EfCUXRhlrLLQ","transactions":[],"name":"Iron Horse Coffee Bar","review_count":75,"rating":4.5},{"location":{"zip_code":"94103","address1":"355 Clementina St","state":"CA","address3":"","address2":"","country":"US","display_address":["355 Clementina St","San Francisco, CA 94103"],"city":"San Francisco"},"categories":[{"title":"Museums","alias":"museums"}],"id":"the-american-bookbinders-museum-san-francisco","display_phone":"(415) 824-9754","is_closed":false,"image_url":"https://s3-media1.fl.yelpcdn.com/bphoto/beLZ-hjqwW4L5tGw_Niq3A/o.jpg","phone":"+14158249754","coordinates":{"longitude":-122.402685508132,"latitude":37.7816223353148},"transactions":[],"url":"https://www.yelp.com/biz/the-american-bookbinders-museum-san-francisco?adjust_creative=a7T5K2HfQ_EfCUXRhlrLLQ&utm_campaign=yelp_api_v3&utm_medium=api_v3_business_search&utm_source=a7T5K2HfQ_EfCUXRhlrLLQ","distance":574.0551829216,"name":"The American Bookbinders Museum","review_count":13,"rating":5},{"location":{"zip_code":"94102","address1":"373A Geary St","state":"CA","address3":null,"address2":"","country":"US","display_address":["373A Geary St","San Francisco, CA 94102"],"city":"San Francisco"},"categories":[{"title":"Art Galleries","alias":"galleries"}],"id":"scott-richards-contemporary-art-san-francisco","display_phone":"(415) 788-5588","is_closed":false,"image_url":"https://s3-media1.fl.yelpcdn.com/bphoto/2Jmjb8Au5x3WVwt4BKdDSQ/o.jpg","phone":"+14157885588","coordinates":{"longitude":-122.40604,"latitude":37.78834},"transactions":[],"url":"https://www.yelp.com/biz/scott-richards-contemporary-art-san-francisco?adjust_creative=a7T5K2HfQ_EfCUXRhlrLLQ&utm_campaign=yelp_api_v3&utm_medium=api_v3_business_search&utm_source=a7T5K2HfQ_EfCUXRhlrLLQ","distance":263.0104611302,"name":"Scott Richards Contemporary Art","review_count":1,"rating":5}]}],"itineraryByCity":[],"_id":"59bb0b412e66ce5df0337c92","fbID":"10212776297616815","user":"Nick Hattwick","photo":"https://scontent.xx.fbcdn.net/v/t1.0-1/p200x200/18835725_10211826494512331_5192164882684738562_n.jpg?oh=834dbb7c06d33cb9549f6e68686cd52c&oe=5A43AB4F","__v":31}
